Date,City,Country,Latitude,Longitude,Max Temp (f),Humidity (%),Cloud Cover (%),Wind Speed (mph)
11/15/21,Busselton,AU,-33.65,115.3333,81.05,51,89,12.68
11/15/21,Saint Paul Harbor,US,57.79,-152.4072,24.31,68,1,3.44
11/15/21,Qaanaaq,GL,77.484,-69.3632,-6.16,60,50,11.48
11/15/21,Touros,BR,-5.1989,-35.4608,79.7,79,15,12.3
11/15/21,Saskylakh,RU,71.9167,114.0833,-6.12,94,99,6.58
11/15/21,Pokhara,NP,28.2333,83.9833,68.16,64,79,5.35
11/15/21,Barrow,US,71.2906,-156.7887,10.42,67,90,12.66
11/15/21,Hasaki,JP,35.7333,140.8333,68.4,56,11,9.66
11/15/21,Ushuaia,AR,-54.8,-68.3,37.06,93,75,25.32
11/15/21,Rikitea,PF,-23.1203,-134.9692,75.0,76,99,15.1
11/15/21,Zhangjiakou,CN,40.81,114.8794,37.15,57,24,1.16
11/15/21,Esperance,AU,-33.8667,121.9,82.24,42,87,15.52
11/15/21,Loandjili,CG,-4.7561,11.8578,77.11,100,75,3.44
11/15/21,Broken Hill,AU,-31.95,141.4333,65.91,37,75,16.11
11/15/21,Hermanus,ZA,-34.4187,19.2345,67.46,66,100,0.78
11/15/21,Windsor,CA,42.3001,-83.0165,37.44,92,90,4.0
11/15/21,Norman Wells,CA,65.282,-126.8329,3.24,78,75,5.75
11/15/21,Laas,IT,46.6166,10.7002,44.06,91,94,2.71
11/15/21,Palmer,US,42.1584,-72.3287,42.22,79,75,1.99
11/15/21,Cayenne,GF,4.9333,-52.3333,80.1,85,0,1.99
11/15/21,Butaritari,KI,3.0707,172.7902,82.22,72,14,15.59
11/15/21,Harper,LR,4.375,-7.7169,77.04,87,52,2.73
11/15/21,Cockburn Town,TC,21.4612,-71.1419,82.22,74,89,14.83
11/15/21,Dera Bugti,PK,29.0307,69.151,77.18,9,0,0.89
11/15/21,Wembley,AU,-31.9333,115.8,80.17,55,20,12.66
11/15/21,Baraya,CO,3.1533,-75.0531,70.18,85,69,3.49
11/15/21,Port Blair,IN,11.6667,92.75,79.47,86,100,14.67
11/15/21,Lakselv,NO,70.0513,24.9718,28.22,80,75,23.02
11/15/21,Hobart,AU,-42.8794,147.3294,51.06,56,40,5.01
11/15/21,Thompson,CA,55.7435,-97.8558,23.16,86,90,3.44
11/15/21,Izyaslav,UA,50.1195,26.8213,41.07,81,67,6.13
11/15/21,Tabou,CI,4.423,-7.3528,77.0,87,57,2.8
11/15/21,Arraial do Cabo,BR,-22.9661,-42.0278,68.92,75,46,16.15
11/15/21,Saint George,US,37.1041,-113.5841,60.53,47,1,0.0
11/15/21,Santa Maria,BR,-29.6842,-53.8069,65.93,96,92,4.81
11/15/21,Khatanga,RU,71.9667,102.5,-2.13,98,100,5.03
11/15/21,Chokurdakh,RU,70.6333,147.9167,1.47,97,100,0.54
11/15/21,East London,ZA,-33.0153,27.9116,68.94,77,0,2.3
11/15/21,Bandar-e Lengeh,IR,26.5579,54.8807,80.71,32,0,16.11
11/15/21,Bluff,NZ,-46.6,168.3333,54.01,90,98,14.45
11/15/21,Plettenberg Bay,ZA,-34.0527,23.3716,70.21,53,100,2.1
11/15/21,San Patricio,US,28.017,-97.5169,73.24,78,0,7.61
11/15/21,Tegul'det,RU,57.3064,88.1667,27.7,90,100,8.75
11/15/21,Beckley,US,37.7782,-81.1882,35.49,70,75,5.01
11/15/21,Mar del Plata,AR,-38.0023,-57.5575,61.88,88,0,15.99
11/15/21,Oddur,SO,4.1213,43.8894,80.33,61,17,13.49
11/15/21,Port Lincoln,AU,-34.7333,135.8667,58.19,59,96,15.48
11/15/21,Hilo,US,19.7297,-155.09,75.79,90,20,3.44
11/15/21,San Andrés,CO,12.5847,-81.7006,84.22,79,40,10.36
11/15/21,Narsaq,GL,60.9167,-46.05,8.82,73,2,5.17
11/15/21,Tuatapere,NZ,-46.1333,167.6833,54.14,81,100,4.81
11/15/21,Kapaa,US,22.0752,-159.319,73.72,68,1,3.44
11/15/21,Lipin Bor,RU,60.2622,37.9763,27.46,77,90,6.46
11/15/21,Ribeira Grande,PT,38.5167,-28.7,67.89,83,75,16.91
11/15/21,Keuruu,FI,62.2667,24.7,27.75,79,97,7.2
11/15/21,Tara,RU,56.8944,74.371,14.72,76,100,8.19
11/15/21,Karakol,KG,42.4907,78.3936,33.08,73,100,8.66
11/15/21,Batticaloa,LK,7.7102,81.6924,84.42,68,17,2.46
11/15/21,Mangai,CD,-4.05,19.5333,73.45,84,93,0.65
11/15/21,Río Gallegos,AR,-51.6226,-69.2181,37.45,81,90,29.93
11/15/21,Punta Arenas,CL,-53.15,-70.9167,41.11,48,75,18.41
11/15/21,Poros,GR,37.4994,23.4536,62.37,75,100,7.4
11/15/21,Port Elizabeth,ZA,-33.918,25.5701,66.49,82,0,3.44
11/15/21,Ancud,CL,-41.8697,-73.8203,42.33,80,100,12.91
11/15/21,Kyra,RU,49.5776,111.9753,32.79,41,14,3.4
11/15/21,Kandrian,PG,-6.2167,149.55,83.35,79,100,5.1
11/15/21,Benghazi,LY,32.1167,20.0667,67.06,59,24,26.62
11/15/21,Adrar,MR,20.5022,-10.0711,69.15,37,17,8.59
11/15/21,Tasiilaq,GL,65.6145,-37.6368,30.36,57,45,10.94
11/15/21,Port Alfred,ZA,-33.5906,26.891,71.15,62,95,3.65
11/15/21,Dingle,PH,10.9995,122.6711,83.84,78,99,10.45
11/15/21,Mataura,NZ,-46.1927,168.8643,54.77,95,100,3.51
11/15/21,Bonthe,SL,7.5264,-12.505,76.39,82,70,3.22
11/15/21,Inhambane,MZ,-23.865,35.3833,78.69,71,70,7.52
11/15/21,Mareeba,AU,-17.0,145.4333,87.44,64,100,8.28
11/15/21,Podor,MR,16.6527,-14.9587,82.27,30,84,8.03
11/15/21,Mackay,AU,-21.15,149.2,88.68,54,0,13.8
11/15/21,Ilulissat,GL,69.2167,-51.1,-3.03,91,100,4.54
11/15/21,Kieta,PG,-6.2167,155.6333,82.78,77,98,3.13
11/15/21,Vestmanna,FO,62.1564,-7.1664,43.72,87,75,12.66
11/15/21,Nikolskoye,RU,59.7035,30.7861,32.02,81,70,1.66
11/15/21,Manaure,CO,11.7751,-72.4445,78.3,82,35,9.62
11/15/21,Peruíbe,BR,-24.32,-46.9983,67.05,87,81,4.07
11/15/21,Iqaluit,CA,63.7506,-68.5145,11.93,85,75,4.61
11/15/21,New Norfolk,AU,-42.7826,147.0587,50.72,52,51,11.34
11/15/21,Nilópolis,BR,-22.8075,-43.4139,65.91,72,0,5.75
11/15/21,Atuona,PF,-9.8,-139.0333,78.48,72,4,16.93
11/15/21,Bethel,US,41.3712,-73.414,42.89,86,90,1.01
11/15/21,Saint-Augustin,CA,51.226,-58.6502,30.49,86,80,9.89
11/15/21,Jamestown,US,42.097,-79.2353,34.92,96,90,5.99
11/15/21,Roebourne,AU,-20.7833,117.1333,93.04,21,63,14.85
11/15/21,Codrington,AU,-38.2667,141.9667,53.06,56,87,17.16
11/15/21,Tela,HN,15.7833,-87.45,73.62,94,59,6.76
11/15/21,Albany,US,42.6001,-73.9662,38.17,90,100,6.33
11/15/21,Yangi Marg`ilon,UZ,40.4272,71.7189,50.72,62,40,9.22
11/15/21,Hervey Bay,AU,-25.2986,152.8535,84.04,63,0,13.98
11/15/21,Kitimat,CA,54.0524,-128.6534,37.9,30,100,3.67
11/15/21,Saldanha,ZA,-33.0117,17.9442,65.39,74,100,11.05
11/15/21,Poya,NC,-21.35,165.15,81.59,71,88,7.16
11/15/21,Naze,JP,28.3667,129.4833,68.92,55,77,13.4
11/15/21,San Rafael,AR,-34.6177,-68.3301,64.81,36,0,5.75
11/15/21,Mtwara,TZ,-10.2667,40.1833,83.5,63,38,8.63
11/15/21,Marzuq,YE,14.4,46.4667,71.89,31,5,2.91
11/15/21,Fortuna,US,40.5982,-124.1573,56.35,65,1,1.99
11/15/21,Kamenka,RU,51.3223,42.7678,33.06,94,100,12.46
11/15/21,Sovetskiy,RU,61.3614,63.5842,18.3,84,100,10.09
11/15/21,Krasnosel'kup,RU,65.7,82.4667,-3.96,98,84,9.62
11/15/21,Bengkulu,ID,-3.8004,102.2655,83.89,68,67,8.03
11/15/21,Castro,BR,-24.7911,-50.0119,55.63,92,99,5.73
11/15/21,George Town,MY,5.4112,100.3354,89.53,70,20,7.0
11/15/21,Yellowknife,CA,62.456,-114.3525,16.32,100,90,10.36
11/15/21,Kavieng,PG,-2.5744,150.7967,84.6,71,69,10.54
11/15/21,Jacareacanga,BR,-6.2222,-57.7528,74.75,88,97,2.06
11/15/21,Avarua,CK,-21.2078,-159.775,73.45,78,20,2.3
11/15/21,Edmonds,US,47.8107,-122.3774,63.01,93,90,4.0
11/15/21,Cape Town,ZA,-33.9258,18.4232,67.1,77,40,1.99
11/15/21,Necochea,AR,-38.5473,-58.7368,52.03,76,21,11.59
11/15/21,Provideniya,RU,64.3833,-173.3,24.91,80,90,13.42
11/15/21,Meulaboh,ID,4.1363,96.1285,84.52,66,92,6.35
11/15/21,Souillac,MU,-20.5167,57.5167,82.78,65,40,11.5
11/15/21,Gigmoto,PH,13.7796,124.39,82.47,82,86,10.36
11/15/21,Ponta do Sol,PT,32.6667,-17.1,66.83,66,42,5.14
11/15/21,Denpasar,ID,-8.65,115.2167,83.86,74,75,1.14
11/15/21,Constitución,CL,-35.3333,-72.4167,48.78,89,12,7.18
11/15/21,Pisco,PE,-13.7,-76.2167,60.03,88,71,3.44
11/15/21,Bredasdorp,ZA,-34.5322,20.0403,69.21,51,100,2.1
11/15/21,Batagay-Alyta,RU,67.8006,130.4114,-17.41,90,76,3.65
11/15/21,Ribeira Brava,PT,32.65,-17.0667,66.83,67,40,5.41
11/15/21,Neiafu,TO,-18.65,-173.9833,81.28,65,40,6.91
11/15/21,Kruisfontein,ZA,-34.0033,24.7314,74.07,43,100,2.53
11/15/21,Emerald,AU,-23.5333,148.1667,89.35,18,0,4.61
11/15/21,Rawson,AR,-43.3002,-65.1023,57.76,28,97,20.22
11/15/21,Tuktoyaktuk,CA,69.4541,-133.0374,6.8,85,75,9.22
11/15/21,Tomatlán,MX,19.9333,-105.25,70.29,85,4,3.83
11/15/21,Asău,RO,46.4333,26.4,44.96,71,92,3.98
11/15/21,Motema,SL,8.6,-11.0333,65.34,85,44,1.25
11/15/21,Leningradskiy,RU,69.3833,178.4167,14.86,95,100,7.81
11/15/21,Hithadhoo,MV,-0.6,73.0833,82.54,72,93,10.89
11/15/21,Tarko-Sale,RU,64.9225,77.785,-4.34,100,85,8.52
11/15/21,Bandarbeyla,SO,9.4942,50.8122,81.25,61,49,11.18
11/15/21,São João da Barra,BR,-21.6403,-41.0511,68.58,71,68,8.3
11/15/21,Tual,ID,-5.6667,132.75,81.16,74,100,4.56
11/15/21,Tawang Town,IN,27.5833,91.8667,54.01,42,5,8.32
11/15/21,Coquimbo,CL,-29.9533,-71.3436,55.13,94,20,5.75
11/15/21,Arcata,US,40.8665,-124.0828,56.62,97,1,3.44
11/15/21,Udachny,RU,66.4167,112.4,-13.58,99,55,4.45
11/15/21,Vaini,TO,-21.2,-175.2,78.96,78,20,8.05
11/15/21,Osmeña,PH,10.5208,119.9258,83.16,78,65,12.97
11/15/21,Hinton,CA,53.4001,-117.5857,36.1,95,45,3.44
11/15/21,Port Alberni,CA,49.2413,-124.8028,47.91,95,100,1.01
11/15/21,Aquiraz,BR,-3.9014,-38.3911,84.22,67,12,10.8
11/15/21,Port-Gentil,GA,-0.7193,8.7815,76.96,94,75,2.3
11/15/21,Lorengau,PG,-2.0226,147.2712,84.7,66,83,6.31
11/15/21,Tisul',RU,55.7611,88.3122,29.89,82,100,12.86
11/15/21,Vao,NC,-22.6667,167.4833,77.18,77,76,11.56
11/15/21,Kashary,RU,49.04,41.0056,34.14,76,67,8.41
11/15/21,Myślibórz,PL,52.9238,14.8679,34.88,96,4,7.54
11/15/21,Bilibino,RU,68.0546,166.4372,5.68,97,98,4.05
11/15/21,Anadyr,RU,64.75,177.4833,30.7,86,75,17.9
11/15/21,Bambanglipuro,ID,-7.95,110.2833,66.6,70,100,2.39
11/15/21,Okato,NZ,-39.2,173.8833,63.43,88,34,14.0
11/15/21,Ahipara,NZ,-35.1667,173.1667,64.27,87,0,11.48
11/15/21,Ulladulla,AU,-35.35,150.4667,67.1,44,44,2.89
11/15/21,Szczytno,PL,53.5626,20.9875,39.13,87,90,4.61
11/15/21,Council Bluffs,US,41.2619,-95.8608,43.57,77,75,10.36
11/15/21,Santa Rosa,PH,14.3122,121.1114,88.11,61,36,12.91
11/15/21,Sioux Lookout,CA,50.1001,-91.917,21.58,100,81,0.49
11/15/21,Lubuagan,PH,17.3548,121.1747,75.61,82,86,4.41
11/15/21,Salalah,OM,17.0151,54.0924,80.69,50,0,1.14
11/15/21,Mahajanga,MG,-15.7167,46.3167,84.22,70,40,6.91
11/15/21,Iralaya,HN,15.0,-83.2333,78.53,84,99,11.12
11/15/21,Grindavik,IS,63.8424,-22.4338,37.87,81,40,24.16
11/15/21,Sakaiminato,JP,35.55,133.2333,66.18,48,75,10.36
11/15/21,Boueni,YT,-12.9025,45.0761,85.98,70,1,4.23
11/15/21,Mbuyapey,PY,-26.2,-56.75,64.42,97,96,1.81
11/15/21,Hong Kong,HK,22.2855,114.1577,77.04,55,53,3.0
11/15/21,Torbay,CA,47.6666,-52.7314,46.67,89,75,27.63
11/15/21,Rāvar,IR,31.2656,56.8055,57.0,31,12,2.17
11/15/21,Mehamn,NO,71.0357,27.8492,32.18,87,100,9.19
11/15/21,Lunca Banului,RO,46.595,28.1683,46.18,73,73,4.63
11/15/21,São Filipe,CV,14.8961,-24.4956,75.81,75,44,8.05
11/15/21,Mahébourg,MU,-20.4081,57.7,82.69,65,40,11.5
11/15/21,Guerrero Negro,MX,27.9769,-114.0611,68.76,58,0,6.96
11/15/21,Ouro Sogui,SN,15.6064,-13.3211,81.68,36,74,8.05
11/15/21,Yerbogachën,RU,61.2767,108.0108,20.39,95,100,4.88
11/15/21,Bako,ET,5.7833,36.5667,68.81,68,94,1.61
11/15/21,Fairbanks,US,64.8378,-147.7164,-6.7,79,75,3.44
11/15/21,Bahía Blanca,AR,-38.7196,-62.2724,60.91,38,79,9.8
11/15/21,Tougue,GN,11.4667,-11.6,65.16,53,75,2.62
11/15/21,Erenhot,CN,43.6475,111.9767,29.84,70,2,5.68
11/15/21,Grand Gaube,MU,-20.0064,57.6608,82.8,66,74,10.0
11/15/21,Airai,TL,-8.9266,125.4092,62.08,94,100,2.89
11/15/21,Geraldton,AU,-28.7667,114.6,75.61,57,0,11.5
11/15/21,Hambantota,LK,6.1241,81.1185,86.34,79,40,13.8
11/15/21,Itacoatiara,BR,-3.1431,-58.4442,74.43,96,97,0.4
11/15/21,Sobolevo,RU,54.4299,31.8996,28.87,92,75,6.67
11/15/21,Mitú,CO,1.1983,-70.1733,71.64,99,100,2.37
11/15/21,Kayerkan,RU,69.3497,87.7602,-3.77,98,99,7.05
11/15/21,Upernavik,GL,72.7868,-56.1549,-0.54,75,4,7.2
11/15/21,Cabedelo,BR,-6.9811,-34.8339,75.87,81,10,10.16
11/15/21,Hamilton,US,39.1834,-84.5333,36.37,76,20,3.0
11/15/21,Lock Haven,US,41.137,-77.4469,38.53,96,100,5.82
11/15/21,Utinga,BR,-5.8172,-35.3954,81.0,83,40,5.75
11/15/21,‘Ewa Beach,US,21.3156,-158.0072,78.75,72,20,0.0
11/15/21,Aktanysh,RU,55.7216,54.0829,17.02,87,100,3.38
11/15/21,Sunyani,GH,7.3399,-2.3268,70.14,97,85,3.04
11/15/21,Casa Grande,US,32.8795,-111.7573,70.02,25,1,0.0
11/15/21,Tupik,RU,54.4253,119.9327,23.95,50,23,2.1
11/15/21,Sitka,US,57.0531,-135.33,33.69,86,90,3.44
11/15/21,Newport,GB,51.5877,-2.9984,49.62,92,40,1.77
11/15/21,Chui,UY,-33.6971,-53.4616,62.11,94,7,4.7
11/15/21,Sirmaur,IN,24.85,81.3833,76.19,37,4,5.88
11/15/21,Sur,OM,22.5667,59.5289,82.31,44,0,12.03
11/15/21,Kazygurt,KZ,41.7589,69.3864,46.33,55,71,7.36
11/15/21,Sokol,RU,59.4617,40.1206,28.36,78,99,6.78
11/15/21,Vardø,NO,70.3705,31.1107,26.8,70,100,24.96
11/15/21,Henties Bay,NA,-22.116,14.2845,59.86,79,93,9.42
11/15/21,Marshall,US,34.3834,-86.3333,46.15,67,1,0.0
11/15/21,Marau,BR,-28.4492,-52.2,62.91,66,94,6.67
11/15/21,Mīzan Teferī,ET,6.9833,35.5833,68.34,87,80,0.43
11/15/21,Tahe,CN,52.3333,124.7333,26.37,47,97,4.97
11/15/21,Katsuura,JP,35.1333,140.3,64.51,66,37,12.33
11/15/21,Camacha,PT,33.0833,-16.3333,63.36,72,20,4.61
11/15/21,Kota Belud,MY,6.351,116.4305,85.86,79,98,6.33
11/15/21,Honiara,SB,-9.4333,159.95,83.93,74,87,4.63
11/15/21,Marsh Harbour,BS,26.5412,-77.0636,75.7,73,100,10.16
11/15/21,Shaowu,CN,27.3409,117.4831,68.99,47,47,3.11
11/15/21,Olovyannaya,RU,50.95,115.5667,34.0,51,35,6.64
11/15/21,Cherskiy,RU,68.75,161.3,1.87,98,95,0.65
11/15/21,Kānt,IN,27.8,79.8,75.36,37,0,0.81
11/15/21,Laguna,US,38.421,-121.4238,61.21,95,90,0.0
11/15/21,Labuhan,ID,-6.8844,112.2051,79.83,81,100,6.11
11/15/21,Garoowe,SO,8.4054,48.4845,77.95,43,29,10.58
11/15/21,Anyang,CN,36.0994,114.3289,57.69,41,6,10.36
11/15/21,Kenai,US,60.5544,-151.2583,7.03,89,1,0.0
11/15/21,Mandera,KE,3.9366,41.867,82.74,59,48,9.31
11/15/21,Walvis Bay,NA,-22.9575,14.5053,60.1,77,83,6.87
11/15/21,Mbanza-Ngungu,CD,-5.25,14.8667,69.67,96,96,5.03
11/15/21,Ilhabela,BR,-23.7781,-45.3581,67.98,85,85,8.79
11/15/21,Avera,US,33.194,-82.5271,49.87,64,0,8.84
11/15/21,San Luis,AR,-33.295,-66.3356,63.34,40,0,12.5
11/15/21,Nouadhibou,MR,20.931,-17.0347,69.78,68,97,6.91
11/15/21,Talcahuano,CL,-36.7167,-73.1167,55.08,82,40,4.61
11/15/21,Asha,RU,54.9973,57.2722,17.06,89,99,1.34
11/15/21,Redea,RO,44.05,24.3,42.94,85,98,5.1
11/15/21,Salantai,LT,56.0667,21.5667,33.3,91,14,6.93
11/15/21,Half Moon Bay,US,37.4636,-122.4286,64.72,84,1,0.0
11/15/21,Dvinskoy,RU,62.1535,45.1175,17.85,94,11,4.38
11/15/21,Tiksi,RU,71.6872,128.8694,-14.24,98,46,6.8
11/15/21,Belmonte,BR,-15.8631,-38.8828,68.5,91,100,12.01
11/15/21,Poum,NC,-20.2333,164.0167,80.49,79,65,12.17
11/15/21,Tura,IN,25.5198,90.2201,76.15,48,0,2.86
11/15/21,Melfi,IT,40.9965,15.6514,49.23,89,100,1.16
11/15/21,Tanout,NE,14.9709,8.8879,75.0,17,74,8.1
11/15/21,Saint-Philippe,RE,-21.3585,55.7679,85.48,66,55,12.88
11/15/21,Iracoubo,GF,5.4802,-53.2011,77.18,88,98,8.03
11/15/21,Longyearbyen,SJ,78.2186,15.6401,17.44,62,20,20.71
11/15/21,Lompoc,US,34.6391,-120.4579,72.52,67,1,3.44
11/15/21,Luanda,AO,-8.8368,13.2343,77.88,80,100,7.87
11/15/21,Nemuro,JP,43.3236,145.575,45.03,72,79,10.87
11/15/21,Rūdbār,AF,30.15,62.6,57.6,39,0,9.37
11/15/21,Dakar,SN,14.6937,-17.4441,77.88,75,62,13.09
11/15/21,Alta,NO,69.9689,23.2717,27.66,87,90,10.36
11/15/21,Kanniyākumāri,IN,8.0833,77.5667,83.41,74,77,17.36
11/15/21,Madarounfa,NE,13.3087,7.156,75.79,21,96,7.07
11/15/21,Pevek,RU,69.7008,170.3133,20.86,90,100,5.17
11/15/21,La Ronge,CA,55.1001,-105.2842,30.45,93,90,1.14
11/15/21,Broome,US,42.2506,-75.833,38.19,84,90,3.0
11/15/21,Whitehorse,CA,60.7161,-135.0538,16.57,86,90,6.91
11/15/21,Klaksvík,FO,62.2266,-6.589,45.52,78,33,27.25
11/15/21,Koutsouras,GR,35.0339,25.9469,65.1,76,96,7.72
11/15/21,Puerto Ayora,EC,-0.7393,-90.3518,67.19,82,54,8.23
11/15/21,Gazimurskiy Zavod,RU,51.5461,118.3266,27.99,59,45,3.2
11/15/21,Ca Mau,VN,9.1769,105.15,82.9,82,97,8.28
11/15/21,Bonavista,CA,48.6499,-53.1147,48.11,89,70,20.89
11/15/21,Alofi,NU,-19.0595,-169.9187,76.89,61,20,10.36
11/15/21,Scarborough,GB,54.2797,-0.4044,50.07,91,24,3.0
11/15/21,Kahului,US,20.8947,-156.47,77.02,91,1,3.44
11/15/21,Tiznit Province,MA,29.5833,-9.5,51.42,76,0,0.98
11/15/21,Alta Floresta,BR,-9.8756,-56.0861,69.93,95,100,2.15
11/15/21,Mayahi,NE,13.9553,7.6712,76.17,18,90,7.63
11/15/21,Baykit,RU,61.67,96.37,21.34,95,100,2.86
11/15/21,Puerto Colombia,CO,10.9878,-74.9547,80.69,80,16,17.63
11/15/21,Tazmalt,DZ,36.3868,4.3989,54.7,86,29,3.91
11/15/21,Waingapu,ID,-9.6567,120.2641,83.73,74,77,6.44
11/15/21,Merced,US,37.1666,-120.7516,56.01,69,90,3.0
11/15/21,Goderich,CA,43.7501,-81.7165,34.92,86,100,3.44
11/15/21,Carnarvon,AU,-24.8667,113.6333,77.07,57,1,20.71
11/15/21,San Lazaro,BZ,18.0387,-88.6622,70.5,98,99,5.75
11/15/21,Vila Franca do Campo,PT,37.7167,-25.4333,67.19,87,58,17.65
11/15/21,Killybegs,IE,54.6333,-8.45,44.46,84,81,9.82
11/15/21,Zavodouspenskoye,RU,56.8626,65.0155,7.02,78,33,4.56
11/15/21,Devils Lake,US,48.1128,-98.8651,28.38,93,90,8.01
11/15/21,General Roca,AR,-39.0333,-67.5833,61.2,47,0,7.54
11/15/21,Departamento de Maldonado,UY,-34.6667,-54.9167,56.59,64,0,5.01
11/15/21,Polunochnoye,RU,60.8697,60.4153,18.32,75,100,7.72
11/15/21,Zabaykal'sk,RU,49.6333,117.3167,33.22,53,10,11.21
11/15/21,Yārāda,IN,17.65,83.2667,86.32,74,40,8.05
11/15/21,Mount Isa,AU,-20.7333,139.5,85.77,13,0,12.66
11/15/21,Sawang Daen Din,TH,17.4753,103.4575,87.19,56,71,5.37
11/15/21,Russell,US,32.3502,-85.1999,49.23,81,1,4.61
11/15/21,Portland,US,45.5234,-122.6762,61.9,86,90,4.0
11/15/21,Kota Kinabalu,MY,5.9749,116.0724,85.98,74,20,4.61
11/15/21,Mizdah,LY,31.4451,12.9801,55.04,53,0,7.31
11/15/21,Te Anau,NZ,-45.4167,167.7167,47.95,93,100,3.83
11/15/21,College,US,64.8569,-147.8028,-2.54,79,75,3.44
11/15/21,Nakhon Phanom,TH,17.3333,104.4167,85.8,48,70,5.06
11/15/21,Launceston,AU,-41.45,147.1667,54.61,42,40,8.01
11/15/21,Berlevåg,NO,70.8578,29.0864,25.84,82,100,23.2
11/15/21,Bubaque,GW,11.2833,-15.8333,82.96,66,63,4.38
11/15/21,Matagami,CA,49.7502,-77.6328,26.71,99,90,2.3
11/15/21,Port Hedland,AU,-20.3167,118.5667,93.25,22,35,20.71
11/15/21,Arman',RU,59.7,150.1667,30.02,91,100,3.42
11/15/21,Comodoro Rivadavia,AR,-45.8667,-67.5,49.86,40,0,20.71
11/15/21,Show Low,US,34.2542,-110.0298,40.71,44,1,0.0
11/15/21,Dessie,ET,11.1333,39.6333,60.33,50,42,4.9
11/15/21,Talnakh,RU,69.4865,88.3972,-6.99,97,100,10.13
11/15/21,Tabuk,PH,17.4189,121.4443,81.55,78,84,9.1
11/15/21,Zyryanka,RU,65.75,150.85,2.73,96,100,6.67
11/15/21,Lluta,PE,-16.0147,-72.0142,49.8,40,89,2.01
11/15/21,Thinadhoo,MV,0.5333,72.9333,82.67,73,79,13.4
11/15/21,Mitchell,US,43.7094,-98.0298,38.1,82,40,5.99
11/15/21,Acaraú,BR,-2.8856,-40.12,79.03,83,59,12.68
11/15/21,Bambous Virieux,MU,-20.3428,57.7575,82.65,65,40,11.5
11/15/21,Miramar,US,25.9873,-80.2323,66.99,80,1,4.61
11/15/21,Berdigestyakh,RU,62.0989,126.6992,-3.32,98,61,2.46
11/15/21,Muchkapskiy,RU,51.8513,42.4717,33.57,96,100,11.16
11/15/21,Singapore,SG,1.2897,103.8501,89.74,78,75,5.75
11/15/21,Rajapalaiyam,IN,9.45,77.5667,87.19,60,81,3.67
11/15/21,Brae,GB,60.3964,-1.353,49.91,84,100,15.01
11/15/21,Chifeng,CN,42.2683,118.9636,37.18,51,8,0.58
11/15/21,Jala,MX,21.0833,-104.4333,62.38,66,23,2.89
11/15/21,Visby,SE,57.6409,18.296,43.95,100,40,4.61
11/15/21,Tefé,BR,-3.3542,-64.7114,73.31,98,85,2.44
11/15/21,Lebu,CL,-37.6167,-73.65,52.12,90,46,11.7
11/15/21,Srednekolymsk,RU,67.45,153.6833,4.93,97,100,4.18
11/15/21,Severo-Kuril'sk,RU,50.6789,156.125,41.94,96,100,10.71
11/15/21,Oranjestad,AW,12.524,-70.027,82.35,78,20,11.5
11/15/21,Valledupar,CO,10.4631,-73.2532,72.5,71,28,4.52
11/15/21,Arauca,CO,7.0847,-70.7591,72.55,88,69,4.56
11/15/21,Mae Ramat,TH,16.984,98.5166,84.52,51,41,5.84
11/15/21,Melo,UY,-32.3667,-54.1833,61.34,96,26,4.72
11/15/21,Clyde River,CA,70.4692,-68.5914,5.29,69,48,5.73
11/15/21,Krasnoarmiys'k,UA,48.282,37.1758,34.38,76,60,8.88
11/15/21,Fort Nelson,CA,58.8053,-122.7002,11.79,85,90,2.3
11/15/21,Mossamedes,AO,-15.1961,12.1522,74.21,80,100,4.63
11/15/21,Inta,RU,66.0317,60.1659,13.77,94,89,14.43
11/15/21,Takoradze,GH,4.8845,-1.7554,77.83,87,56,4.81
11/15/21,Fuyu,CN,45.1833,124.8167,32.52,80,44,8.12
11/15/21,Dikson,RU,73.5069,80.5464,-7.73,99,99,5.35
11/15/21,Qui Nhon,VN,13.7667,109.2333,75.67,96,100,8.84
11/15/21,Hare Bay,CA,48.8499,-54.0148,40.35,84,62,13.58
11/15/21,Kigoma,TZ,-4.8769,29.6267,76.6,74,100,2.73
11/15/21,Tatvan,TR,38.5067,42.2817,29.26,32,100,1.34
11/15/21,Calvinia,ZA,-31.4707,19.776,77.41,21,13,2.64
11/15/21,Sungai Penuh,ID,-2.0833,101.3833,80.8,43,100,5.68
11/15/21,Nome,US,64.5011,-165.4064,23.07,68,90,6.91
11/15/21,Castaños,MX,26.7833,-101.4167,66.34,37,0,2.86
11/15/21,Taltal,CL,-25.4,-70.4833,58.57,84,24,2.59
11/15/21,Tondano,ID,1.3038,124.9112,77.09,74,100,0.87
11/15/21,Manta,EC,-0.95,-80.7333,69.58,88,90,9.22
11/15/21,Ust-Kuyga,RU,70.0167,135.6,-18.49,98,100,4.03
11/15/21,Abastumani,GE,41.7075,42.8457,32.92,46,100,1.21
11/15/21,Dhaka,BD,23.7104,90.4074,76.98,69,75,0.0
11/15/21,Bathsheba,BB,13.2167,-59.5167,79.41,78,40,21.85
11/15/21,Orán,AR,-23.1322,-64.326,70.43,91,79,2.19
11/15/21,Praia,CV,14.9215,-23.5087,75.74,78,20,8.05
11/15/21,Beringovskiy,RU,63.05,179.3167,29.41,85,100,19.91
11/15/21,Vostok,RU,46.4856,135.8833,19.26,75,58,11.18
11/15/21,Den Helder,NL,52.9599,4.7593,48.18,85,90,8.01
11/15/21,East Bethel,US,45.3194,-93.2025,31.26,82,1,0.0
11/15/21,Khovd,MN,48.0056,91.6419,40.23,34,100,2.68
11/15/21,Suez,EG,29.9737,32.5263,69.57,56,17,5.61
11/15/21,Maumere,ID,-8.6199,122.2111,82.42,76,98,3.24
11/15/21,Tuy Hoa,VN,13.0833,109.3,76.35,95,100,8.46
11/15/21,Erdemli,TR,36.605,34.3084,68.68,34,100,5.14
11/15/21,Yeppoon,AU,-23.1333,150.7333,87.58,55,0,11.48
11/15/21,Finschhafen,PG,-6.6024,147.8681,85.55,67,78,8.05
11/15/21,Seoul,KR,37.5683,126.9778,60.37,39,75,6.91
11/15/21,La Macarena,CO,2.1837,-73.7849,71.53,94,67,2.44
11/15/21,Great Yarmouth,GB,52.6083,1.7305,51.24,80,95,5.86
11/15/21,Kidal,ML,18.4411,1.4078,74.16,16,76,9.48
11/15/21,Lesnoy,RU,57.6198,63.0784,14.9,81,52,4.68
11/15/21,Diamantino,BR,-14.4086,-56.4461,72.79,94,99,2.71
11/15/21,Hearst,CA,49.6835,-83.6665,30.45,96,99,7.23
11/15/21,Ati,TD,13.2154,18.3353,79.11,14,10,8.84
11/15/21,Padang,ID,-0.9492,100.3543,87.85,67,99,4.99
11/15/21,Hermiston,US,45.8404,-119.2895,64.2,74,1,5.75
11/15/21,Bahía Solano,CO,6.2262,-77.4044,76.68,90,81,4.56
11/15/21,Belaya Gora,RU,68.5333,146.4167,2.05,97,100,2.01
11/15/21,Platýkampos,GR,39.6167,22.5333,54.75,82,100,3.09
11/15/21,Port Augusta,AU,-32.5,137.7667,64.71,46,26,20.74
11/15/21,Carbonear,CA,47.7332,-53.2148,48.42,88,94,17.74
11/15/21,Duvan,RU,55.695,57.9024,15.93,83,100,1.52
11/15/21,Cap Malheureux,MU,-19.9842,57.6142,82.89,65,71,8.99
11/15/21,Constantine,DZ,36.365,6.6147,49.41,93,40,1.14
11/15/21,Joplin,US,37.0842,-94.5133,42.8,79,1,1.01
11/15/21,Westport,US,41.1415,-73.3579,44.76,83,90,1.99
11/15/21,Gouyave,GD,12.1646,-61.7296,79.83,77,8,17.81
11/15/21,Prome,MM,18.8167,95.2167,87.8,64,36,0.72
11/15/21,Penzance,GB,50.1186,-5.5371,51.76,78,100,0.98
11/15/21,Columbus,US,39.9612,-82.9988,36.82,84,90,10.0
11/15/21,Olafsvik,IS,64.8945,-23.7142,40.15,67,98,36.08
11/15/21,Flinders,AU,-34.5833,150.8552,69.21,46,39,18.39
11/15/21,Champerico,GT,14.3,-91.9167,79.03,80,40,3.49
11/15/21,Pingliang,CN,35.5392,106.6861,50.94,27,0,6.13
11/15/21,Vanavara,RU,60.34,102.2797,23.76,92,100,6.15
11/15/21,Port Moresby,PG,-9.4431,147.1797,87.22,74,75,17.27
11/15/21,Usogorsk,RU,63.4106,48.6872,16.9,89,45,7.34
11/15/21,Strezhevoy,RU,60.7333,77.5889,-0.42,89,80,2.53
11/15/21,Mount Gambier,AU,-37.8333,140.7667,55.31,54,90,16.11
11/15/21,Alexandria,EG,31.2156,29.9553,71.56,78,0,3.44
11/15/21,Kichmengskiy Gorodok,RU,59.9816,45.7854,20.5,94,92,6.8
11/15/21,Aykhal,RU,66.0,111.5,-8.52,100,100,5.88
11/15/21,Pohrebyshche,UA,49.4864,29.2636,41.83,73,100,7.07
11/15/21,Puerto Escondido,MX,15.85,-97.0667,76.35,63,51,4.18
11/15/21,Coahuayana Viejo,MX,18.7333,-103.6833,73.22,71,33,4.72
11/15/21,Mitsamiouli,KM,-11.3847,43.2844,84.49,61,40,11.5
11/15/21,Vuktyl,RU,63.8567,57.3094,17.53,91,100,7.4
11/15/21,Tilichiki,RU,60.4667,166.1,25.72,96,100,7.25
11/15/21,Sumter,US,28.7086,-82.0831,54.95,90,8,5.41
11/15/21,Aklavik,CA,68.2191,-135.0107,7.63,97,100,2.55
11/15/21,Paamiut,GL,61.994,-49.6678,8.02,74,0,8.77
11/15/21,Kaitangata,NZ,-46.2817,169.8464,59.94,84,93,13.13
11/15/21,Fairview,US,40.8126,-73.999,44.02,83,100,1.01
11/15/21,Spornoye,RU,50.8448,37.2913,30.22,87,16,10.04
11/15/21,Rome,US,43.2128,-75.4557,37.54,94,90,4.61
11/15/21,Emba,KZ,48.8264,58.1442,27.34,71,100,2.24
11/15/21,Sal Rei,CV,16.1833,-22.9167,72.16,72,95,8.12
11/15/21,Sabha,LY,27.0377,14.4283,62.06,61,97,8.68
11/15/21,São José da Coroa Grande,BR,-8.8978,-35.1478,77.56,83,16,8.75
11/15/21,Muros,ES,42.7762,-9.0603,55.09,82,2,14.2
11/15/21,Okhotsk,RU,59.3833,143.3,23.76,95,100,13.82
11/15/21,Atamanovka,RU,51.93,113.63,27.03,55,92,3.04
11/15/21,Kungälv,SE,57.871,11.9805,42.19,90,68,6.33
11/15/21,Maramba,TZ,-5.05,38.6167,74.14,59,81,4.41
11/15/21,Katete,UG,-0.7818,29.7544,70.43,64,98,2.08
11/15/21,Prado,BR,-17.3411,-39.2208,67.75,83,87,8.16
11/15/21,Kalang,PH,5.9197,121.3631,82.56,74,97,1.52
11/15/21,Sibu,MY,2.3,111.8167,89.91,62,40,3.0
11/15/21,Sehnde,DE,52.3139,9.9682,42.78,96,6,6.2
11/15/21,Alice Springs,AU,-23.7,133.8833,80.15,24,32,8.05
11/15/21,Virginia Beach,US,36.8529,-75.978,54.01,76,75,5.75
11/15/21,Ketchikan,US,55.3422,-131.6461,39.67,87,90,5.75
11/15/21,Ichtegem,BE,51.115,3.0309,48.9,91,75,4.0
11/15/21,Ruteng,ID,-8.6136,120.4721,68.5,89,99,0.72
11/15/21,Cabo San Lucas,MX,22.8909,-109.9124,79.52,43,7,3.04
11/15/21,Qujing,CN,25.4833,103.7833,59.25,79,98,13.22
11/15/21,Bariloche,AR,-41.1456,-71.3082,35.35,87,40,4.61
11/15/21,Skellefteå,SE,64.7507,20.9528,34.16,69,90,1.01
11/15/21,Gimbi,ET,9.1667,35.8333,60.15,85,80,0.98
11/15/21,Butterworth,MY,5.3991,100.3638,89.64,70,20,7.0
11/15/21,Camaçari,BR,-12.6975,-38.3242,71.37,96,99,3.49
11/15/21,Sola,VU,-13.8833,167.55,82.2,74,99,12.71
11/15/21,Puro,PH,12.4841,123.3827,83.26,76,84,10.49
11/15/21,São João dos Patos,BR,-6.495,-43.7022,69.24,96,32,3.33
11/15/21,Khasan,RU,42.4308,130.6434,43.9,37,1,11.9
11/15/21,Cuacnopalan,MX,18.8167,-97.5,47.52,89,16,5.55
11/15/21,Halifax,CA,44.6453,-63.5724,42.85,87,73,3.44
11/15/21,Kayes,ML,14.0,-11.0,75.94,42,54,3.31
11/15/21,Tromsø,NO,69.6496,18.957,35.62,87,75,4.0
11/15/21,Yablonovsky,RU,44.989,38.9432,32.14,100,20,2.24
11/15/21,Novoagansk,RU,61.9449,76.6625,3.29,95,93,5.77
11/15/21,Cervignano del Friuli,IT,45.8211,13.3381,57.27,62,90,8.05
11/15/21,Nísia Floresta,BR,-6.0911,-35.2086,80.98,88,11,6.85
11/15/21,Itarema,BR,-2.9248,-39.9167,79.09,81,53,12.53
11/15/21,Honjō,JP,36.2333,139.1833,70.68,28,0,3.67
11/15/21,Koulikoro,ML,14.0,-7.75,71.31,32,42,8.37
11/15/21,Manggar,ID,-2.8833,108.2667,75.76,88,100,9.71
11/15/21,Yuli,NG,9.6989,10.2744,75.13,31,35,1.95
11/15/21,Ucluelet,CA,48.9329,-125.5528,47.08,93,100,2.73
11/15/21,Mpongwe,ZM,-13.5091,28.155,75.72,56,64,4.76
11/15/21,Muyezerskiy,RU,63.9333,31.65,21.81,81,93,7.05
11/15/21,Agüimes,ES,27.9054,-15.4461,61.43,73,20,6.91
11/15/21,Texarkana,US,33.4251,-94.0477,50.23,85,1,3.44
11/15/21,Bolgatanga,GH,10.7856,-0.8514,80.02,49,41,3.83
11/15/21,San Quintín,MX,30.4833,-115.95,66.94,49,0,3.74
11/15/21,Alekseyevsk,RU,57.8406,108.3492,30.25,96,100,6.98
11/15/21,Challapata,BO,-18.9,-66.7667,51.82,37,37,3.69
11/15/21,Namatanai,PG,-3.6667,152.4333,83.86,72,83,8.75
11/15/21,Ribas do Rio Pardo,BR,-20.4431,-53.7592,74.61,79,100,3.0
11/15/21,Forsytheganj,BY,52.6333,29.7333,30.36,92,28,6.33
11/15/21,Itigi,TZ,-5.7,34.4833,75.33,48,63,10.36
11/15/21,Jīsh,IL,33.0222,35.4469,61.0,36,66,3.15
11/15/21,Petropavl,KZ,54.8753,69.1628,15.78,73,20,13.42
11/15/21,Stornoway,GB,58.2093,-6.3865,44.92,93,70,6.91
11/15/21,Myitkyina,MM,25.3833,97.4,81.28,53,26,2.06
11/15/21,Boaco,NI,12.4722,-85.6586,73.24,97,8,6.38
11/15/21,Maputo,MZ,-25.9653,32.5892,68.23,94,100,3.0
11/15/21,Beloha,MG,-25.1667,45.05,82.76,47,10,8.72
11/15/21,Faanui,PF,-16.4833,-151.75,76.5,77,100,21.92
11/15/21,Kutum,SD,14.2,24.6667,68.0,20,0,5.91
11/15/21,Farah,AF,32.5,62.5,54.12,40,0,3.96
11/15/21,Christchurch,NZ,-43.5333,172.6333,71.8,26,42,11.5
11/15/21,Waipawa,NZ,-41.4122,175.5153,61.43,69,0,20.56
11/15/21,Flin Flon,CA,54.7682,-101.865,22.91,97,100,4.0
11/15/21,Harrisonburg,US,38.4496,-78.8689,43.18,70,75,8.05
11/15/21,Puerto Baquerizo Moreno,EC,-0.9,-89.6,67.08,81,59,11.43
11/15/21,Changji,CN,44.0167,87.3167,38.19,48,93,4.47
11/15/21,Valdivia,CL,-39.8142,-73.2459,51.89,96,94,8.68
11/15/21,Hazleton,US,40.9584,-75.9746,35.15,87,95,7.52
11/15/21,Ballina,AU,-28.8667,153.5667,86.18,24,0,6.91
11/15/21,Itapeva,BR,-23.9822,-48.8756,56.52,94,82,5.28
11/15/21,Chicama,PE,-7.8447,-79.1469,63.41,83,67,5.01
11/15/21,Waynesville,US,35.4887,-82.9887,42.66,66,27,3.0
11/15/21,San Cristobal,VE,7.7669,-72.225,68.18,92,80,1.28
11/15/21,Polyarny,RU,69.1989,33.4478,14.47,83,100,16.28
11/15/21,Lagoa,PT,39.05,-27.9833,66.83,86,65,23.94
11/15/21,Monrovia,LR,6.3005,-10.7969,76.21,86,26,4.34
11/15/21,Lüderitz,NA,-26.6481,15.1594,73.6,48,0,15.19
11/15/21,Zhezkazgan,KZ,47.8043,67.7144,27.52,69,70,15.41
11/15/21,Pontianak,ID,-0.0333,109.3333,87.78,66,75,9.22
11/15/21,Topeka,US,39.0483,-95.678,46.11,70,1,8.05
11/15/21,La Orilla,MX,17.9833,-102.2333,73.54,65,8,4.99
11/15/21,Samfya,ZM,-11.3649,29.5565,79.68,43,50,10.49
11/15/21,Pau dos Ferros,BR,-6.1125,-38.2063,77.94,70,64,6.11
11/15/21,Kjøllefjord,NO,70.9457,27.3465,32.05,86,100,14.29
11/15/21,Bogorodskoye,RU,56.55,37.8833,29.59,78,95,12.24
11/15/21,Santa Isabel,BR,-23.3156,-46.2214,60.66,95,74,3.62
11/15/21,Bintulu,MY,3.1667,113.0333,88.21,74,40,7.0
11/15/21,Auki,SB,-8.7676,160.7034,84.63,65,71,3.51
11/15/21,Gao,ML,16.6362,1.637,72.64,20,58,10.29
11/15/21,Boromo,BF,11.75,-2.9333,75.47,24,95,3.44
11/15/21,Jiayuguan City,CN,39.8167,98.3,47.05,16,0,6.67
11/15/21,Kibungo,RW,-2.1597,30.5427,61.72,89,100,1.68
11/15/21,Umluj,SA,25.0213,37.2685,77.34,59,3,9.73
11/15/21,Mokrousovo,RU,55.8103,66.7653,15.71,83,76,6.73
11/15/21,Pemangkat,ID,1.1667,108.9667,83.8,70,98,7.29
11/15/21,Tcholliré,CM,8.4022,14.1698,75.02,46,13,2.66
11/15/21,Arrondissement de Millau,FR,44.0833,2.9167,45.0,97,96,4.09
11/15/21,Port Hardy,CA,50.6996,-127.4199,44.6,100,90,2.3
11/15/21,Blackfoot,US,43.1905,-112.345,54.57,56,97,12.55
11/15/21,Øksfjord,NO,70.2396,22.3479,32.92,93,100,13.22
11/15/21,Samarai,PG,-10.6167,150.6667,83.73,77,100,11.36
11/15/21,Baft,IR,29.234,56.6057,52.2,25,0,2.93
11/15/21,Petatlán,MX,17.5167,-101.2667,71.13,66,6,4.43
11/15/21,Caucayá,CO,-0.1934,-74.7819,71.33,99,95,2.35
11/15/21,Ihosy,MG,-22.4,46.1167,84.69,41,100,1.86
11/15/21,Cherëmukhovo,RU,60.3484,59.9851,17.69,78,100,5.66
11/15/21,Peniche,PT,39.3558,-9.3811,56.62,95,4,8.28
11/15/21,Raja,SS,8.4596,25.678,81.48,24,31,5.48
11/15/21,Parabel',RU,58.6978,81.4825,10.62,89,100,10.65
11/15/21,Kavaratti,IN,10.5669,72.642,79.38,86,100,18.07
11/15/21,Jutaí,BR,-5.1833,-68.9,73.38,98,100,0.67
11/15/21,Izhmorskiy,RU,56.194,86.6414,27.72,89,100,11.07
11/15/21,Villalba,PR,18.1272,-66.4921,78.98,84,11,3.74
11/15/21,Lohāru,IN,28.45,75.8167,79.16,16,0,3.22
11/15/21,Evensk,RU,61.95,159.2333,26.83,93,100,12.41
11/15/21,Luau,AO,-10.7073,22.2247,69.22,79,100,4.09
11/15/21,Kimberley,ZA,-28.7323,24.7623,67.69,64,0,5.75
11/15/21,Hofn,IS,64.2539,-15.2082,41.99,79,14,29.75
11/15/21,Arona,ES,28.0996,-16.681,64.38,61,20,11.5
